[{"name":"Cosmopolitan Apartments","address":"400 NE 45th St","city":"Seattle","zip":"98105","state":"WA","type":"apartment","avg":"6","reviews":[{"name":"Mary Jones","duration":"12","score":"6","text":"I enjoyed staying in this apartment but the heating broke many times and it took very long to get it repaired"}],"lat":47.6615917,"lng":-122.3234764},{"name":"Campus View Apartments","address":"4322 7th Ave NE","city":"Seattle","zip":"98105","state":"WA","type":"apartment","avg":"","reviews":[],"lat":47.65994999999999,"lng":-122.32049819999997},{"name":"Avalon Apartments","address":"4254 7th Ave NE","city":"Seattle","zip":"98105","state":"WA","type":"apartment","avg":"","reviews":[],"lat":47.658981,"lng":-122.320516},{"name":"University West","address":"710 NE 42nd St","city":"Seattle","zip":"98105","state":"WA","type":"apartment","avg":"","reviews":[],"lat":47.657736,"lng":-122.32021800000001},{"name":"Ravenna Park Place Apartments","address":"5301 Roosevelt Way NE","city":"Seattle","zip":"98105","state":"WA","type":"apartment","avg":"","reviews":[],"lat":47.6672604,"lng":-122.3176901},{"name":"Sagamore Building","address":"5200 Roosevelt Way NE","city":"Seattle","zip":"98105","state":"WA","type":"apartment","avg":"","reviews":[],"lat":47.6666362,"lng":-122.31707059999997},{"name":"The Kennedy Building Luxury Apartments","address":"907 NE 45th St","city":"Seattle","zip":"98105","state":"WA","type":"apartment","avg":"","reviews":[],"lat":47.6612425,"lng":-122.31877050000003},{"name":"Trinity Apartments","address":"902 NE 43rd St","city":"Seattle","zip":"98105","state":"WA","type":"apartment","avg":"","reviews":[],"lat":47.6596185,"lng":-122.3182673},{"name":"Allegro","address":"4060 9th Ave NE","city":"Seattle","zip":"98105","state":"WA","type":"apartment","avg":"","reviews":[],"lat":47.657006,"lng":-122.31852400000002},{"name":"TraVign on Eleventh Avenue","address":"4726 11th Ave NE","city":"Seattle","zip":"98105","state":"WA","type":"apartment","avg":"","reviews":[],"lat":47.6639572,"lng":-122.31600700000001},{"name":"Carlstrom Apartments","address":"4225 11th Ave NE","city":"Seattle","zip":"98105","state":"WA","type":"apartment","avg":"","reviews":[],"lat":47.6590253,"lng":-122.31686939999997},{"name":"Lee and Lee Apartments","address":"4145 11th Ave NE","city":"Seattle","zip":"98105","state":"WA","type":"apartment","avg":"","reviews":[],"lat":47.6581109,"lng":-122.3169914},{"name":"Cedar Apartments","address":"1128 NE 41st St","city":"Seattle","zip":"98105","state":"WA","type":"apartment","avg":"","reviews":[],"lat":47.6568798,"lng":-122.31609300000002},{"name":"Stevens Court","address":"3801 Brooklyn Ave NE","city":"Seattle","zip":"98105","state":"WA","type":"apartment","avg":"","reviews":[],"lat":47.6538909,"lng":-122.31463450000001},{"name":"University Court","address":"5219 Brooklyn Ave NE","city":"Seattle","zip":"98105","state":"WA","type":"apartment","avg":"","reviews":[],"lat":47.66701219999999,"lng":-122.31447630000002},{"name":"Helix & Ellipse Apartments","address":"4751 12th Ave","city":"Seattle","zip":"98105","state":"WA","type":"apartment","avg":"","reviews":[],"lat":47.6646723,"lng":-122.3154495},{"name":"Acacia Court Apartments","address":"4701 12th Ave NE","city":"Seattle","zip":"98105","state":"WA","type":"apartment","avg":"","reviews":[],"lat":47.6631317,"lng":-122.31527949999997},{"name":"Stanford Apartments","address":"1304 NE 42nd St","city":"Seattle","zip":"98105","state":"WA","type":"apartment","avg":"","reviews":[],"lat":47.658515,"lng":-122.314009},{"name":"Campus Apartments","address":"4139 12th Ave NE","city":"Seattle","zip":"98105","state":"WA","type":"apartment","avg":"","reviews":[],"lat":47.6579017,"lng":-122.31586930000003},{"name":"Muriels Landing","address":"5204 The Ave","city":"Seattle","zip":"98105","state":"WA","type":"apartment","avg":"","reviews":[],"lat":47.66648929999999,"lng":-122.31304510000001},{"name":"Mondrian Apartments","address":"5017 15th Ave NE","city":"Seattle","zip":"98105","state":"WA","type":"apartment","avg":"","reviews":[],"lat":47.6655135,"lng":-122.31228249999998},{"name":"Lothlorien Apartments","address":"4730 The Ave","city":"Seattle","zip":"98105","state":"WA","type":"apartment","avg":"","reviews":[],"lat":47.6638698,"lng":-122.31276760000003},{"name":"Wilsonian Apartments","address":"4710 The Ave","city":"Seattle","zip":"98105","state":"WA","type":"apartment","avg":"","reviews":[],"lat":47.6633806,"lng":-122.31276600000001},{"name":"D D Culp Apartments","address":"4555 15th Ave NE","city":"Seattle","zip":"98105","state":"WA","type":"apartment","avg":"","reviews":[],"lat":47.6629077,"lng":-122.312295},{"name":"Malloy Apartments","address":"4337 15th Ave NE","city":"Seattle","zip":"98105","state":"WA","type":"apartment","avg":"","reviews":[],"lat":47.6608114,"lng":-122.31235029999999},{"name":"University Manor Apartments","address":"1305 NE 43rd St","city":"Seattle","zip":"98105","state":"WA","type":"apartment","avg":"","reviews":[],"lat":47.659611,"lng":-122.31398000000002},{"name":"Russell Hall Apartments","address":"1414 NE 42nd St","city":"Seattle","zip":"98105","state":"WA","type":"apartment","avg":"","reviews":[],"lat":47.65832349999999,"lng":-122.31225749999999},{"name":"Commodore-Duchess Apartments","address":"4005 15th Ave NE","city":"Seattle","zip":"98105","state":"WA","type":"apartment","avg":"","reviews":[],"lat":47.6555802,"lng":-122.31238860000002},{"name":"Patricia Place","address":"4750 16th Ave NE","city":"Seattle","zip":"98105","state":"WA","type":"apartment","avg":"","reviews":[],"lat":47.6645489,"lng":-122.3104831},{"name":"The Rivendell Apartments","address":"4719 15th Ave NE","city":"Seattle","zip":"98105","state":"WA","type":"apartment","avg":"","reviews":[],"lat":47.6635323,"lng":-122.3121878},{"name":"Bradford House","address":"4720 17th Ave NE","city":"Seattle","zip":"98105","state":"WA","type":"apartment","avg":"","reviews":[],"lat":47.663747,"lng":-122.30916100000002},{"name":"Upstairs-Downstairs Apartments","address":"4538 18th Ave NE","city":"Seattle","zip":"98105","state":"WA","type":"apartment","avg":"","reviews":[],"lat":47.6624226,"lng":-122.3079376},{"name":"Husky Court Apartments","address":"4629 21st Ave NE","city":"Seattle","zip":"98105","state":"WA","type":"apartment","avg":"","reviews":[],"lat":47.6626295,"lng":-122.30570410000001},{"name":"Pacific Sunrise","address":"4616 22nd Ave NE","city":"Seattle","zip":"98105","state":"WA","type":"apartment","avg":"","reviews":[],"lat":47.66252859999999,"lng":-122.30396229999997},{"name":"University View Apartments","address":"5226 22nd Ave NE","city":"Seattle","zip":"98105","state":"WA","type":"apartment","avg":"","reviews":[],"lat":47.667277,"lng":-122.30410499999999},{"name":"Benton Court Apartments","address":"2257 NE 53rd St","city":"Seattle","zip":"98105","state":"WA","type":"apartment","avg":"","reviews":[],"lat":47.6671151,"lng":-122.30299969999999},{"name":"The Cordyon","address":"5101 25th Ave NE","city":"Seattle","zip":"98105","state":"WA","type":"apartment","avg":"","reviews":[],"lat":47.6670507,"lng":-122.3008041},{"name":"Nordheim Court","address":"5000 25th Ave NE","city":"Seattle","zip":"98105","state":"WA","type":"apartment","avg":"","reviews":[],"lat":47.6655032,"lng":-122.29971799999998},{"name":"Cathrine Court","address":"4528 20th Ave NE","city":"Seattle","zip":"98105","state":"WA","type":"apartment","avg":"","reviews":[],"lat":47.6621631,"lng":-122.30640829999999},{"name":"Barclay Apartments","address":"4747 16th Ave NE","city":"Seattle","zip":"98105","state":"WA","type":"apartment","avg":"","reviews":[],"lat":47.664379,"lng":-122.31112330000002},{"name":"Kelsey Apartments","address":"4223 9th Ave NE","city":"Seattle","zip":"98105","state":"WA","type":"apartment","avg":"","reviews":[]}]